"station","region","state","station_code","first date","height","longitude","latitude"
QUEIMADAS,NE,BA,A436,"2008-05-23",315.0,-39.61694443,-10.984645
MACAU,NE,RN,A317,"2007-01-06",32.0,-36.57305554,-5.15111111
SAQUAREMA - SAMPAIO CORREIA,SE,RJ,A667,"2019-01-01",26.0,-42.60888888,-22.8711111
SANTANA DO LIVRAMENTO,S,RS,A804,"2001-11-22",328.0,-55.40138888,-30.75055555
VILA VELHA,SE,ES,A634,"2017-02-15",25.0,-40.40388888,-20.46694443
GOVERNADOR VALADARES,SE,MG,A532,"2007-05-27",214.0,-41.97666666,-18.83027777
CABROBO,NE,PE,A329,"2007-09-04",342.74,-39.31388888,-8.50305555
OURO BRANCO,SE,MG,A513,"2006-07-28",1061.0,-43.75611111,-20.54583333
BAURU,SE,SP,A705,"2001-08-30",666.0,-49.028877,-22.358052
DIAMANTINA,SE,MG,A537,"2007-06-05",1359.25,-43.64805555,-18.231052
SANTIAGO,S,RS,A833,"2009-02-04",394.0,-54.88555555,-29.19138888
FEIRA DE SANTANA,NE,BA,A413,"2007-05-26",231.0,-38.96722221,-12.19583333
ILHA DO MEL,S,PR,A847,"2007-03-23",1.0,-48.32583332,-25.49444444
CACHOEIRA PAULISTA,SE,SP,A769,"2017-10-20",586.0,-45.005444,-22.68888888
CORRENTE,NE,PI,A374,"2018-03-28",452.0,-45.17305554,-10.42916666
SAO SIMAO,CO,GO,A011,"2006-07-15",492.45,-50.61666666,-18.96666666
SAPEZAL,CO,MT,A911,"2017-10-20",105.0,-58.76333333,-10.16583333
APUI,N,AM,A113,"2008-07-19",160.0,-59.888561,-7.205475
CAIAPONIA,CO,GO,A023,"2007-05-21",740.1,-51.81749999,-16.96666666
SAO LUIS DO QUITUNDE,NE,AL,A356,"2008-09-08",19.0,-35.56583333,-9.287481
FRANCA,SE,SP,A708,"2002-12-12",1026.0,-47.37999999,-20.57999999
PEF YAUARETE,N,AM,S115,"2016-12-01",-9999.0,-69.19194444,0.59944444
PICOS,NE,PI,A343,"2008-12-12",233.0,-41.40416666,-7.07083332
DRACENA,SE,SP,A762,"2016-11-03",720.0,-51.55222222,-21.457699
IVAI,S,PR,A818,"2006-07-11",808.0,-50.853853,-25.010757
RONDONOPOLIS,CO,MT,A907,"2003-11-17",289.88,-54.56666666,-16.45
SAO VICENTE DO SUL,S,RS,A889,"2016-04-06",134.0,-54.69416666,-29.70194444
TEOFILO OTONI,SE,MG,A527,"2006-08-25",475.0,-41.515423,-17.89284
FAROL de SANTANA,NE,MA,A217,"2008-11-28",9.87,-43.62388888,-2.270811
LAGES,S,SC,A865,"2014-11-06",955.0,-50.335457,-27.80222222
ITUVERAVA,SE,SP,A753,"2008-07-17",610.58,-47.77499999,-20.35944444
NOVO HORIZONTE,S,SC,A816,"2008-09-20",960.0,-52.85027777,-26.40638888
PIUM,N,TO,A051,"2016-04-06",161.0,-49.62944443,-10.476944
ALEGRETE,S,RS,A826,"2006-09-28",121.0,-55.525486,-29.709083
COLINAS,NE,MA,A222,"2008-06-03",179.0,-44.23333333,-6.03305554
SACRAMENTO,SE,MG,A525,"2006-08-19",913.12,-47.434102,-19.875271
CAPAO DO LEAO (PELOTAS),S,RS,A887,"2019-07-18",13.0,-52.40722222,-31.8025
SANTA MARIA MADALENA,SE,RJ,A630,"2018-10-16",517.0,-42.01027777,-21.95055555
AQUIDAUANA,CO,MS,A719,"2006-11-01",155.0,-55.78388888,-20.47555554
PATOS,NE,PB,A321,"2007-07-21",263.66,-37.27249999,-7.07972221
TORRES,S,RS,A808,"2006-06-01",8.44,-49.73305554,-29.35027777
TIANGUA,NE,CE,A368,"2018-03-15",756.0,-41.011881,-3.732169
FORTE PRINCIPE,N,RO,S101,"2016-12-01",-9999.0,-64.41999999,-12.42999999
GOIOERE,S,PR,A825,"2019-01-01",452.34,-53.03055554,-24.15833333
GARANHUNS,NE,PE,A322,"2007-07-08",827.78,-36.493381,-8.90694444
ITACOATIARA,N,AM,A121,"2008-04-17",74.0,-58.48277777,-3.13305554
CAMPO VERDE,CO,MT,A912,"2006-11-21",749.0,-55.13555555,-15.52749999
ALEGRE,SE,ES,A617,"2006-10-25",138.0,-41.48888888,-20.75055555
PARANATINGA,CO,MT,A915,"2006-12-19",476.91,-54.03527777,-14.42138888
RIO DE JANEIRO - JACAREPAGUA,SE,RJ,A636,"2017-08-10",20.0,-43.40277777,-22.93972221
VALPARAISO,SE,SP,A734,"2007-08-30",381.9,-50.930158,-21.319138
CACAPAVA DO SUL,S,RS,A812,"2006-06-22",420.82,-53.46705,-30.545317
GUARDA-MOR,SE,MG,A546,"2007-07-11",997.01,-47.19916666,-17.56138888
CAMPINA VERDE,SE,MG,A519,"2006-07-15",559.07,-49.51805554,-19.53916666
NOVA TEBAS,S,PR,A822,"2006-12-21",656.24,-51.96305555,-24.43722221
FORTE DE COPACABANA,SE,RJ,A652,"2007-05-18",42.0,-43.19027777,-22.98833333
PARNAIBA,NE,PI,A308,"2003-02-06",79.5,-41.78305554,-3.08638888
ARACUAI,SE,MG,A566,"2017-05-19",308.0,-42.44055555,-16.84888888
PONTA PORA,CO,MS,A703,"2001-09-07",675.0,-55.716317,-22.552448
CACERES,CO,MT,A941,"2012-03-30",123.53,-57.69277777,-16.07444443
BOM JARDIM DA SERRA - MORRO DA IGREJA,S,SC,A845,"2007-06-17",1810.0,-49.47961,-28.126992
OIAPOQUE,N,AP,A242,"2008-09-11",21.0,-51.8625,3.81361111
CAMPOS DO JORDAO,SE,SP,A706,"2002-03-13",1662.95,-45.603836,-22.750231
PORANGATU,CO,GO,A005,"2018-09-13",365.5,-49.117478,-13.30944444
SERRA DOS AIMORES,SE,MG,A522,"2006-08-21",211.97,-40.24972221,-17.7986111
CONCEICAO DO ARAGUAIA,N,PA,A241,"2008-09-04",180.0,-49.27416666,-8.25916666
ERECHIM,S,RS,A828,"2006-11-25",777.08,-52.305805,-27.65771
DTCEA TEFE,N,AM,S117,"2016-12-01",-9999.0,-64.72305554,-3.37722221
PARANAPOEMA,S,PR,A850,"2008-03-04",311.0,-52.13444444,-22.49166666
CAMPOS SALES,NE,CE,A347,"2008-03-07",577.95,-40.362678,-7.07773
MANACAPURU,N,AM,A119,"2008-04-10",55.0,-60.62833332,-3.29472221
CARATINGA,SE,MG,A554,"2007-05-24",615.0,-42.137146,-19.735757
PASSA QUATRO,SE,MG,A529,"2007-05-30",1040.0,-44.96166666,-22.395799
ARQ.SAO PEDRO E SAO PAULO,NE,RN,A302,"2003-11-02",15.0,-29.31666666,0.916877
DTCEA VILHENA,N,RO,S104,"2016-12-01",-9999.0,-60.14916666,-12.75055555
CLEVELANDIA,S,PR,A876,"2008-05-15",980.0,-52.3486111,-26.41722221
ITABAIANINHA,NE,SE,A417,"2007-05-23",208.0,-37.79472221,-11.27249999
NOVO ARIPUANA,N,AM,A144,"2019-07-18",45.0,-60.38055554,-8.0911111
JAPIRA,S,PR,A871,"2008-02-29",694.0,-50.18055554,-23.77305554
CASTANHAL,N,PA,A202,"2003-01-24",65.0,-47.93083332,-1.30083333
ARIQUEMES,N,RO,A940,"2008-07-18",140.0,-62.961873,-9.94888888
ITAJAI,S,SC,A868,"2010-06-24",18.0,-48.76194444,-26.95083333
FEIJO,N,AC,A138,"2009-09-24",163.0,-70.343594,-8.142654
EUCLIDES DA CUNHA,NE,BA,A442,"2008-03-31",431.96,-38.996605,-10.53722221
AGUA BOA,CO,MT,A908,"2006-12-16",440.0,-52.21166666,-14.01611111
AVARE,SE,SP,A725,"2006-09-22",776.36,-48.9411111,-23.09972221
S. G. DA CACHOEIRA,N,AM,A134,"2011-08-31",90.0,-67.06111111,-0.12499999
BENTO GONCALVES,S,RS,A840,"2006-12-01",640.0,-51.534202,-29.164581
TUPA,SE,SP,A768,"2017-05-12",498.0,-50.490251,-21.92722221
VITORIA,SE,ES,A612,"2006-10-31",9.0,-40.3,-20.26666666
POCO VERDE,NE,SE,A419,"2008-04-03",367.01,-38.10777777,-10.73749999
GUARANTA DO NORTE,CO,MT,A906,"2002-12-20",320.0,-54.88333333,-9.95
ITUPORANGA,S,SC,A863,"2008-03-04",484.0,-49.64666666,-27.41833332
SANTA RITA DE CASSIA,NE,BA,A415,"2007-05-28",450.01,-44.52499999,-11.00277777
FORTALEZA,NE,CE,A305,"2003-02-18",29.55,-38.53777777,-3.815701
FORMOSO DO ARAGUAIA,N,TO,A039,"2008-04-27",220.0,-49.608215,-11.887377
BELO HORIZONTE - CERCADINHO,SE,MG,F501,"2013-12-27",1214.0,-43.95861111,-19.97999999
AFONSO CLAUDIO,SE,ES,A657,"2011-09-24",520.0,-41.10694444,-20.10416666
MARILIA,SE,SP,A763,"2017-05-15",660.0,-49.965,-22.235222
DOM ELISEU,N,PA,S107,"2016-12-01",251.0,-47.55,-4.28055554
FLORESTA,NE,PE,A351,"2008-09-15",332.0,-38.58388888,-8.5936111
ITAPEVA,SE,SP,A714,"2006-07-25",745.0,-48.88527777,-23.98138888
INACIO MARTINS,S,PR,A823,"2006-10-16",1260.0,-51.077946,-25.56583333
SAO CARLOS,SE,SP,A711,"2006-09-04",863.0,-47.88333333,-21.97972221
ECOLOGIA AGRICOLA,SE,RJ,A601,"2000-05-07",33.0,-43.68333333,-22.8
CARIRA,NE,SE,A420,"2008-03-28",308.0,-37.74722221,-10.39944444
PEDRO AFONSO,N,TO,A020,"2007-01-23",189.71,-48.177259,-8.9686111
BONITO,CO,MS,S704,"2018-08-06",329.0,-56.450442,-21.24666666
RANCHARIA,SE,SP,A718,"2006-09-01",398.75,-50.97416666,-22.37249999
COLINAS DO TOCANTINS,N,TO,A049,"2016-11-11",200.0,-48.478605,-8.092708
SANTA FE DO ARAGUAIA,N,TO,A048,"2016-07-30",171.0,-48.781267,-7.12416666
SAO MIGUEL DO ARAGUAIA,CO,GO,A031,"2017-06-29",340.0,-50.33583333,-12.81972221
TUCURUI,N,PA,A229,"2008-03-01",148.0,-49.674956,-3.82276
BOCA DO ACRE,N,AM,A110,"2008-07-15",111.98,-67.33222221,-8.77666666
PEF ESTIRAO DO EQUADOR,N,AM,S116,"2016-12-01",-9999.0,-71.61749999,-4.52999999
PALMEIRA DAS MISSOES,S,RS,A856,"2008-02-26",631.0,-53.31694443,-27.92027777
SAO SEBASTIAO DO PARAISO,SE,MG,A561,"2015-08-17",845.0,-47.11416666,-20.909892
LAGOA VERMELHA,S,RS,A844,"2007-03-02",842.58,-51.51222222,-28.22194443
MAUES,N,AM,A122,"2008-04-22",35.0,-57.6736111,-3.39888888
DUQUE DE CAXIAS - XEREM,SE,RJ,A603,"2019-01-01",22.0,-43.28222221,-22.58972221
COSTA RICA,CO,MS,A760,"2012-12-04",730.0,-53.171261,-18.492665
RIO DE JANEIRO - FORTE DE COPACABANA,SE,RJ,A652,"2019-01-01",25.59,-43.19055555,-22.98833333
MONTE ALEGRE DE GOIAS,CO,GO,A032,"2007-06-07",1253.0,-46.88972221,-13.24805555
ARARANGUA,S,SC,A867,"2008-09-28",12.0,-49.49792,-28.931353
CAXIAS,NE,MA,A237,"2008-07-13",84.85,-43.3436111,-4.821352
ROSARIO OESTE,CO,MT,A944,"2019-05-30",195.0,-56.44194444,-14.82888888
CASA BRANCA,SE,SP,A738,"2007-06-25",734.15,-47.07528,-21.77972221
QUERENCIA,CO,MT,A916,"2007-07-18",360.59,-52.19444444,-12.5986111
CAMAQUA,S,RS,A838,"2006-12-12",92.3,-51.83424,-30.807953
SAO BENTO,NE,MA,S108,"2016-12-01",-9999.0,-44.85,-2.7
ALTAMIRA,N,PA,A253,"2018-10-25",191.0,-52.39472221,-3.27027777
IRECE,NE,BA,A424,"2008-03-31",768.42,-41.86444444,-11.32888888
ARCO VERDE,NE,PE,A309,"2004-11-20",683.95,-37.055477,-8.41694443
SILVANIA,CO,GO,A037,"2010-10-08",952.0,-48.61805554,-16.67694443
SANTAREM,N,PA,A250,"2015-09-02",137.0,-54.72027777,-2.502572
CAMPOS LINDOS,N,TO,A043,"2012-10-29",426.56,-46.63916666,-8.15472222
RONDON DO PARA,N,PA,A214,"2008-04-17",203.0,-48.17333332,-4.82749999
MATEIROS,N,TO,A040,"2012-10-25",798.0,-45.91999999,-10.42999999
MONTE ALEGRE,N,PA,A239,"2012-07-06",100.53,-54.07583332,-2.0
ALTA FLORESTA,CO,MT,A924,"2007-05-23",291.85,-56.1,-9.84944444
PALMEIRA DOS INDIOS,NE,AL,A327,"2007-07-11",278.01,-36.62027777,-9.42027777
AREIA,NE,PB,A310,"2004-11-16",574.62,-35.68499999,-6.97499999
IVINHEMA,CO,MS,A709,"2003-02-08",377.36,-53.82277777,-22.300421
JOAO PESSOA,NE,PB,A320,"2007-07-21",47.0,-34.81527777,-7.165409
PATOS DE MINAS,SE,MG,A562,"2017-05-12",950.0,-46.44055555,-18.52055554
RESENDE,SE,RJ,A609,"2006-09-29",439.89,-44.444786,-22.45
MURIAE,SE,MG,A517,"2006-08-30",297.0,-42.37583332,-21.10472222
ITAPORA,CO,MS,S710,"2018-02-26",360.0,-54.798833,-22.09277777
PALMAS,N,TO,A009,"2004-12-17",291.87,-48.3,-10.18333333
BARRA,NE,BA,A429,"2008-05-12",407.5,-43.13888888,-11.08472221
Laguna  - Farol de Santa Marta,S,SC,A866,"2008-06-01",52.0,-48.813313,-28.60416666
PORTO WALTER,N,AC,A136,"2009-10-29",205.35,-72.74777777,-8.26694443
SENHOR DO BONFIM,NE,BA,A428,"2008-03-27",539.0,-40.148244,-10.44305555
SANTA ROSA,S,RS,A810,"2006-11-15",276.0,-54.480014,-27.890463
ITAPORANGA,NE,PB,A373,"2017-11-03",292.0,-38.140833,-7.318472
CURACA,NE,BA,A448,"2015-08-20",370.0,-39.9125,-9.00138888
VARGINHA,SE,MG,A515,"2006-07-13",955.0,-45.40416666,-21.56638888
BELEM,N,PA,A201,"2003-01-20",24.0,-48.43833333,-1.41027777
ITUIUTABA,SE,MG,A512,"2006-05-12",560.0,-49.52499999,-18.95277777
NOVA ANDRADINA,CO,MS,S713,"2018-04-09",372.0,-53.46583333,-22.078528
MACAUBAS,NE,BA,A454,"2016-04-07",574.0,-42.61722221,-13.03888888
SALGUEIRO,NE,PE,A370,"2017-09-15",447.0,-39.096111,-8.05805555
REGISTRO,SE,SP,A766,"2017-02-09",35.0,-47.864139,-24.53305554
RIBEIRA DO AMPARO,NE,BA,A458,"2018-09-20",182.0,-38.44416666,-11.05861111
VILHENA,N,RO,A938,"2008-08-26",590.0,-60.15777777,-12.73472221
CATALAO,CO,GO,A034,"2008-01-31",900.72,-47.92638888,-18.154779
GILBUES,NE,PI,A364,"2009-05-16",425.1,-45.345805,-9.87472221
ALTO TAQUARI,CO,MT,A934,"2008-01-29",875.0,-53.28749999,-17.81555555
VALENCA,NE,BA,A444,"2009-06-29",105.0,-39.12666666,-13.34361
MONTES CLAROS,SE,MG,A506,"2002-12-19",646.29,-43.843763,-16.686316
S.J. DO RIO CLARO,CO,MT,A903,"2003-02-25",350.0,-56.66666666,-13.45
CAARAPO,CO,MS,S706,"2018-03-03",456.0,-54.819306,-22.65694444
CAMPOS,SE,RJ,A607,"2006-09-25",25.0,-41.35,-21.71666666
CHAPECO,S,SC,A895,"2019-02-19",680.0,-52.63555555,-27.0853111
MONTALVANIA,SE,MG,A526,"2007-06-26",519.52,-44.01583333,-14.408228
DIONISIO CERQUEIRA,S,SC,A848,"2008-05-31",810.0,-53.63277777,-26.28638888
TAUA,NE,CE,A324,"2007-07-12",415.0,-40.281321,-6.01666666
PRADOPOLIS,SE,SP,A747,"2008-04-22",544.0,-48.11388888,-21.33833333
DOURADOS,CO,MS,A721,"2006-10-18",469.0,-54.911355,-22.19388888
ARAPIRACA,NE,AL,A353,"2008-04-27",241.0,-36.61888888,-9.80416666
ITIQUIRA,CO,MT,A933,"2008-08-14",593.12,-54.50169,-17.175051
LUIZ EDUARDO MAGALHAES,NE,BA,A404,"2002-04-18",760.68,-45.82972221,-12.15222222
BARBACENA,SE,MG,A502,"2002-12-05",1168.76,-43.76694443,-21.228373
PLACAS,N,PA,A211,"2008-02-14",100.45,-54.216416,-3.86404
PORTO MURTINHO,CO,MS,A723,"2006-10-24",85.0,-57.886546,-21.70583333
PETROLINA,NE,PE,A307,"2003-02-21",372.72,-40.48944444,-9.38805555
RIO PARDO,S,RS,A813,"2006-09-30",111.0,-52.38194443,-29.872113
IBIRITE (ROLA MOCA),SE,MG,A555,"2008-06-06",1208.0,-44.01111111,-20.0311111
RECIFE,NE,PE,A301,"2004-12-22",11.3,-34.95916666,-8.05916666
DTCEA GUAJARA-MIRIM,N,RO,S110,"2016-12-01",-9999.0,-65.33277777,-10.78999999
MOCAMBINHO,SE,MG,A539,"2007-11-11",460.0,-44.016036,-15.08583333
SAO LUIS,NE,MA,A203,"2003-01-29",56.0,-44.21305555,-2.52666666
SAO GONCALO,NE,PB,A333,"2007-11-06",237.04,-38.22749999,-6.75666666
RIO SONO,N,TO,A050,"2016-08-03",291.0,-47.132732,-9.16
REDENCAO,N,PA,A254,"2019-07-11",199.0,-50.00694444,-8.04333333
BALIZA,N,RR,S113,"2016-12-01",-9999.0,-59.74638888,0.94777777
GOIANESIA,CO,GO,A022,"2007-06-02",667.01,-48.98999999,-15.22027777
RIO CLARO,SE,RJ,A626,"2016-06-03",516.0,-44.04083333,-22.653579
MANHUACU,SE,MG,A556,"2010-09-25",836.0,-42.18277777,-20.26333333
DIAMANTE DO NORTE,S,PR,A849,"2008-03-06",368.22,-52.85888888,-22.63388888
MOSTARDAS,S,RS,A878,"2008-03-11",10.0,-50.90555555,-31.24777777
CARLINDA,CO,MT,A926,"2008-04-09",306.0,-55.79055555,-9.97055554
CAMAPUA,CO,MS,S707,"2018-02-19",540.0,-54.02999999,-19.58749999
TAUBATE,SE,SP,A728,"2006-12-20",582.26,-45.52027777,-23.041668
CORUMBA,CO,MS,A724,"2006-10-26",126.0,-57.63749999,-18.99666666
IGUATU,NE,CE,A319,"2007-05-30",233.0,-39.26888888,-6.396375
LINHARES,SE,ES,A614,"2006-10-27",40.0,-40.0686111,-19.356923
PILAO ARCADO,NE,BA,A449,"2016-05-28",400.0,-42.47333332,-10.00222222
PIRAPORA,SE,MG,A545,"2007-07-04",505.32,-44.83555555,-17.25777777
NOVA VENECIA,SE,ES,A623,"2008-06-22",156.02,-40.39055555,-18.695265
PATROCINIO,SE,MG,A523,"2006-08-22",978.11,-46.98583333,-18.99638888
DOIS VIZINHOS,S,PR,A843,"2007-03-29",545.95,-53.09444444,-25.69472221
DORES DO INDAIA,SE,MG,A536,"2007-06-01",722.0,-45.59388888,-19.48166666
DTCEA JACAREACANGA,N,PA,S120,"2016-12-01",-9999.0,-57.77499999,-6.23722221
ARAXA,SE,MG,A505,"2002-12-19",1020.0,-46.94944444,-19.60555555
PORTO GRANDE,N,AP,A244,"2019-01-01",84.8,-51.40388888,0.69444444
CAPITAO POCO,N,PA,A248,"2011-04-18",81.0,-47.0575,-1.73472221
BREVES,N,PA,A228,"2017-10-20",11.0,-50.47805554,-1.680251
IGUATEMI,CO,MS,S709,"2018-02-19",319.0,-54.57027777,-23.64444444
MACEIO,NE,AL,A303,"2003-02-25",84.12,-35.770195,-9.55111111
CORURIPE,NE,AL,A355,"2008-09-06",82.39,-36.28638888,-10.1286111
MANAUS,N,AM,A101,"2000-05-09",61.25,-60.01555555,-3.10333333
ARAL MOREIRA,CO,MS,S702,"2018-04-13",605.0,-55.626,-22.955
BERTIOGA,SE,SP,A765,"2017-02-01",5.0,-46.14305555,-23.844678
CONDE,NE,BA,A431,"2008-04-07",31.9,-37.59972221,-11.8
SANTANA DO ARAGUAIA,N,PA,A233,"2008-05-30",176.75,-50.35027777,-9.338611
SANTA MARIA DAS BARREIRAS,N,PA,A256,"2021-01-01",165.0,-49.85638888,-8.72972221
PLANALTO,S,PR,A855,"2007-11-07",399.1,-53.74792,-25.721863
FLORIANO,NE,PI,A311,"2004-11-18",126.39,-43.00333333,-6.76138888
PAMPULHA,SE,MG,A521,"2006-10-10",869.0,-43.969397,-19.883945
BELMONTE,NE,BA,A447,"2009-07-02",89.67,-39.21527777,-16.08805555
IBIMIRIM,NE,PE,A349,"2008-10-14",448.0,-37.71138888,-8.50944444
BELA VISTA,CO,MS,A757,"2011-08-09",208.0,-56.53999999,-22.10083333
MIRANDA,CO,MS,A722,"2006-11-02",140.0,-56.41666666,-20.38333333
JUARA,CO,MT,A914,"2006-11-02",263.43,-57.526641,-11.280158
SERRA DOS CARAJAS,N,PA,A230,"2008-09-03",719.0,-50.14222221,-6.077427
JUTI,CO,MS,A749,"2008-06-16",379.0,-54.60555555,-22.85721
SAO PAULO - INTERLAGOS,SE,SP,A771,"2018-03-14",771.0,-46.677501,-23.724501
DTCEA TABATINGA,N,AM,S105,"2016-12-01",-9999.0,-69.93499999,-4.25055555
BRUMADO,NE,BA,A433,"2008-04-28",473.37,-41.67222221,-14.18166666
BREJO GRANDE,NE,SE,A421,"2008-07-17",6.11,-36.48194443,-10.47388888
JUIZ DE FORA,SE,MG,A518,"2007-05-26",950.0,-43.36416666,-21.769965
PAO DE ACUCAR,NE,AL,A323,"2007-07-14",20.83,-37.430765,-9.74922
ITAITUBA,N,PA,A231,"2008-02-17",24.46,-55.99305555,-4.27638888
CORONEL PACHECO,SE,MG,A557,"2012-10-17",431.0,-43.261029,-21.546728
LARANJEIRAS DO SUL,S,PR,B804,"2016-08-07",835.0,-52.39194444,-25.36888888
VOTUPORANGA,SE,SP,A729,"2006-12-04",510.37,-49.96583333,-20.40305555
ITATIAIA,SE,RJ,A635,"2017-09-01",2450.0,-44.70305555,-22.37388888
BARRA BONITA,SE,SP,A741,"2008-04-24",544.0,-48.55722222,-22.37083332
ALMAS,N,TO,A053,"2016-04-01",512.0,-47.212125,-11.284098
OBIDOS,N,PA,A232,"2012-07-05",96.0,-49.12527777,-1.880789
MOSSORO,NE,RN,A318,"2007-05-22",36.0,-37.366943,-4.90388888
ITAUBAL,N,AP,A251,"2017-08-24",21.0,-50.823528,0.567833
JOSE BONIFACIO,SE,SP,A735,"2007-09-03",408.35,-49.920388,-21.08555555
PEDRO GOMES,CO,MS,S714,"2018-02-02",251.0,-54.548811,-18.072711
CAMPO BOM,S,RS,A884,"2013-11-29",24.0,-51.064042,-29.674293
SANTO AUGUSTO,S,RS,A805,"2001-12-05",490.0,-53.7911111,-27.85416666
SILVA JARDIM,SE,RJ,A659,"2015-08-28",19.0,-42.41555555,-22.64583333
BURITIRAMA,NE,BA,A432,"2008-05-15",506.5,-43.65111111,-10.722925
RIO URUBU,N,AM,A125,"2008-06-26",112.84,-59.60055555,-2.6336111
CACADOR,S,SC,A859,"2008-03-19",952.0,-50.98552,-26.819156
GUIRATINGA,CO,MT,A932,"2008-01-24",526.0,-53.76611111,-16.34166666
ARAGUAINA,N,TO,A021,"2007-01-26",230.76,-48.20111111,-7.103954
BARREIRAS,NE,BA,A402,"2001-12-20",474.17,-45.01666666,-12.124715
CASTRO,S,PR,A819,"2006-07-09",1007.76,-49.999266,-24.786954
BARBALHA,NE,CE,A315,"2007-05-31",409.41,-39.2711111,-7.30083333
MACAJUBA,NE,BA,A412,"2003-02-03",380.0,-40.18333333,-12.11666666
MARABA,N,PA,A240,"2009-06-25",116.58,-49.051166,-5.16722221
ALFREDO CHAVES,SE,ES,A615,"2006-11-03",35.0,-40.74138888,-20.63638888
GURUPI,N,TO,A019,"2006-12-20",287.0,-49.049703,-11.745782
SAO TOME,SE,RJ,A620,"2008-06-13",8.0,-41.05194444,-22.04166666
BANDEIRANTES,CO,MS,S703,"2018-01-29",624.0,-54.368533,-19.945539
IBOTIRAMA,NE,BA,A439,"2008-04-28",430.0,-43.2125,-12.19249999
SALINAS,SE,MG,A552,"2007-09-14",495.0,-42.310266,-16.16027777
BRASNORTE (NOVO MUNDO),CO,MT,A927,"2019-01-01",426.2,-58.23138888,-12.52194443
CAICO,NE,RN,A316,"2007-01-07",171.26,-37.084931,-6.45972222
VALENCA,SE,RJ,A611,"2006-09-27",370.0,-43.69555555,-22.35
PARANAIBA,CO,MS,A710,"2006-11-10",424.0,-51.18138888,-19.69527777
SAO JOSE DOS AUSENTES,S,RS,A829,"2006-10-26",1244.0,-50.057869,-28.748615
BURITIS,SE,MG,A544,"2007-06-19",894.0,-46.435536,-15.52416666
PACAJA,N,PA,A210,"2008-02-27",108.0,-50.63805555,-3.8436111
GUARAMIRANGA,NE,CE,A314,"2007-05-26",865.53,-38.19749999,-4.26111111
SAO LUIS DO PARAITINGA,SE,SP,A740,"2007-11-01",862.3,-45.41694443,-23.22833332
SIDROLANDIA,CO,MS,A754,"2008-09-29",471.43,-54.97194443,-20.98166666
PARANA,N,TO,A010,"2005-03-04",284.96,-47.871917,-12.614893
LUZIANIA,CO,GO,A012,"2006-10-21",1000.82,-47.96638888,-16.26055555
MANICORE,N,AM,A133,"2011-12-12",71.0,-61.28833333,-5.7886111
VENTANIA,S,PR,A872,"2011-04-15",1106.0,-50.21015,-24.23833333
SAO FELIX  DO ARAGUAIA,CO,MT,A921,"2007-10-19",218.0,-50.72777777,-11.61888888
CABACEIRAS,NE,PB,A348,"2008-02-28",436.0,-36.28638888,-7.483206
BRASILIA,CO,DF,A001,"2000-05-07",1160.96,-47.925756,-15.789343
SAO MATEUS,SE,ES,A616,"2006-10-25",39.0,-39.84833333,-18.676198
GUANHAES,SE,MG,A533,"2007-06-02",860.0,-42.942921,-18.78666666
ALMENARA,SE,MG,A508,"2002-12-15",194.0,-40.687756,-16.16666666
SAO MIGUEL ARCANJO,SE,SP,A715,"2006-08-15",678.0,-48.16444444,-23.85138888
PARATI,SE,RJ,A619,"2006-11-19",5.0,-44.72666666,-23.22333332
ITAPOA,S,SC,A851,"2007-06-06",6.18,-48.64166666,-26.0811111
MINEIROS,CO,GO,A026,"2007-11-24",862.0,-52.60111111,-17.45472222
XEREM,SE,RJ,A603,"2002-10-21",33.0,-43.28222221,-22.58972221
CIDADE GAUCHA,S,PR,A869,"2008-03-11",381.0,-52.931912,-23.359156
RIO VERDE,CO,GO,A025,"2007-05-17",782.0,-50.964869,-17.785303
PACARAIMA,N,RR,S114,"2016-12-01",-9999.0,-61.14916666,4.47749999
PASSOS,SE,MG,A516,"2006-07-16",784.0,-46.63388888,-20.74499999
SAO ROMAO,SE,MG,A547,"2007-06-30",490.29,-45.123801,-16.3625
QUIXERAMOBIM,NE,CE,A325,"2007-07-09",232.0,-39.28722221,-5.17305554
BOM JESUS DO PIAUI,NE,PI,A326,"2007-07-17",415.0,-44.31666666,-9.083251
ESPINOSA,SE,MG,A543,"2007-11-14",569.64,-42.808473,-14.91222222
ULIANOPOLIS,N,PA,S111,"2016-12-01",-9999.0,-47.51,-3.8
MANTENA,SE,MG,A540,"2007-08-01",254.91,-40.98583333,-18.78027777
ITAMARAJU,NE,BA,A455,"2016-05-28",110.0,-39.550861,-17.00694444
XANXERE,S,SC,A858,"2008-03-15",889.0,-52.39809,-26.9386111
MINA DO PALITO,N,PA,A246,"2010-09-28",261.0,-55.78722221,-6.31972221
INDAIAL,S,SC,A817,"2006-07-02",86.13,-49.26749999,-26.91361111
PREGUICAS,NE,MA,A218,"2008-11-22",4.62,-42.70722222,-2.592341
MARIANOPOLIS DO TO,N,TO,A041,"2012-11-24",203.0,-49.723333,-9.576389
SALTO DO CEU,CO,MT,A936,"2008-01-24",303.0,-58.115,-15.12472221
MACHADO,SE,MG,A567,"2017-07-21",969.0,-45.944389,-21.680722
JAGUARAO,S,RS,A836,"2007-01-09",47.0,-53.37583332,-32.53472221
ANGICAL DO PIAUI,NE,PI,A377,"2019-11-14",183.0,-42.72749999,-6.08944444
NOVA FRIBURGO - SALINAS,SE,RJ,A624,"2019-01-01",1070.0,-42.67694443,-22.33472221
MARAMBAIA,SE,RJ,A602,"2002-11-08",9.7,-43.6,-23.05
BAGE,S,RS,A827,"2007-01-04",230.0,-54.013292,-31.34777777
SOBRAL,NE,CE,A306,"2003-02-12",109.62,-40.34555555,-3.73166666
MORRINHOS,CO,GO,A003,"2001-05-25",771.42,-49.1,-17.71666667
BARRETOS,SE,SP,A748,"2010-06-19",534.36,-48.54472221,-20.55888888
ARRAIAL DO CABO,SE,RJ,A606,"2006-09-24",5.0,-42.01666666,-22.97527777
NOVO REPARTIMENTO,N,PA,A235,"2008-07-23",106.0,-49.939308,-4.23444444
VITORIA DA CONQUISTA,NE,BA,A414,"2007-06-01",879.38,-40.80133,-14.8861111
PARINTINS,N,AM,A123,"2008-04-11",52.0,-56.75472222,-2.639152
CRMN MANAUS,N,AM,S103,"2016-12-01",-9999.0,-60.05555555,-3.02249999
SAO RAIMUNDO NONATO,NE,PI,A345,"2008-02-27",402.0,-42.70055555,-9.03305554
MARAU,NE,BA,A438,"2008-06-22",10.0,-38.97222,-13.90694
RIO PARDO DE MINAS,SE,MG,A551,"2007-11-17",950.0,-42.43527777,-15.72277777
COMODORO,CO,MT,A913,"2006-11-28",591.0,-59.7625,-13.70805555
SANTA RITA DO PARDO,CO,MS,S716,"2018-02-19",383.0,-52.82027777,-21.30583333
RIO GRANDE,S,RS,A802,"2001-11-16",4.92,-52.1,-32.03333333
COXIM,CO,MS,A720,"2006-11-06",252.0,-54.73583333,-18.51222222
SAO JOAO DO PIAUI,NE,PI,A331,"2007-08-26",235.0,-42.25083333,-8.36444444
PIATA,NE,BA,A430,"2008-05-03",1290.0,-41.774125,-13.155681
OURICURI,NE,PE,A366,"2010-08-11",464.0,-40.10111111,-7.88472221
BOA VISTA,N,RR,A135,"2010-08-26",94.0,-60.690821,2.81694443
PRESIDENTE PRUDENTE,SE,SP,A707,"2003-02-04",435.55,-51.4,-22.119867
ITAPIPOCA,NE,CE,A359,"2008-09-05",104.49,-39.58833333,-3.48388888
RIO DE JANEIRO - VILA MILITAR,SE,RJ,A621,"2019-01-01",30.43,-43.41138888,-22.86138888
JANUARIA,SE,MG,A559,"2016-06-23",480.0,-44.366313,-15.44805555
BARRA DO TURVO,SE,SP,A746,"2008-07-03",667.0,-48.41638888,-24.96277777
MARIA DA FE,SE,MG,A531,"2006-12-01",1281.43,-45.37277777,-22.31444444
MORRETES,S,PR,A873,"2008-03-13",59.0,-48.80861111,-25.508935
AGUAS VERMELHAS,SE,MG,A549,"2007-09-09",754.07,-41.457787,-15.751536
CRUZ ALTA,S,RS,A853,"2007-05-31",432.0,-53.673597,-28.60344
PRESIDENTE FIGUEIREDO,N,AM,A126,"2008-04-19",92.0,-60.025756,-2.056558
PARANOA (COOPA-DF),CO,DF,A047,"2017-02-07",1043.0,-47.557417,-16.01111111
CALCANHAR,NE,RN,A344,"2008-05-08",17.0,-35.45416666,-5.159925
NOVA ALVORADA DO SUL,CO,MS,S712,"2018-02-23",5.0,-54.34194444,-21.450972
CURVELO,SE,MG,A538,"2006-12-18",670.0,-44.45361111,-18.747711
ESTREITO,NE,MA,A224,"2008-02-27",182.96,-47.41833332,-6.65333333
BRAGANCA,N,PA,A226,"2008-03-11",41.0,-46.78277777,-1.04527777
TANGARA DA SERRA,CO,MT,A902,"2002-12-11",440.01,-57.41666666,-14.65
SINOP,CO,MT,A917,"2006-10-29",371.0,-55.56583333,-11.98222221
SAO GABRIEL DO OESTE,CO,MS,A732,"2006-12-18",647.0,-54.55305555,-19.42027777
JAGUARUANA,NE,CE,A339,"2007-11-10",49.0,-37.76666666,-4.78694444
SETE QUEDAS,CO,MS,A751,"2008-06-03",402.0,-55.02416666,-23.96694443
NITEROI,SE,RJ,A627,"2018-07-13",6.0,-43.10194444,-22.867389
DIANOPOLIS,N,TO,A038,"2008-08-30",732.0,-46.847209,-11.59416666
SAO SEBASTIAO,SE,SP,A767,"2017-10-25",24.0,-45.4025,-23.810722
FATIMA DO SUL,CO,MS,S708,"2018-02-28",340.0,-54.325833,-22.30861111
MORADA NOVA,NE,CE,A332,"2007-08-24",45.03,-38.35638888,-5.13638888
ARAGUATINS,N,TO,A044,"2009-03-12",130.71,-48.11166666,-5.6436111
SAO MIGUEL DO OESTE,S,SC,A857,"2008-03-12",665.0,-53.50444444,-26.77666666
ARIRANHA,SE,SP,A736,"2007-11-13",525.44,-48.84027777,-21.13305554
SALVADOR,NE,BA,A401,"2000-05-13",51.41,-38.50576,-13.005515
PIRES DO RIO,CO,GO,A033,"2007-10-12",757.27,-48.28416666,-17.30416666
REMANSO,NE,BA,A423,"2008-03-26",401.0,-42.077214,-9.60277777
MARINGA,S,PR,A835,"2006-11-21",548.51,-51.91666666,-23.40527777
MEDICILANDIA,N,PA,A209,"2008-02-17",251.68,-52.96345,-3.51083333
ITAQUIRAI,CO,MS,A752,"2008-05-28",337.82,-54.18166666,-23.44944444
EDEIA,CO,GO,A029,"2017-08-26",608.0,-49.91472222,-17.33694444
LAGOA DA CONFUSAO,N,TO,A055,"2016-11-15",178.0,-49.84777777,-10.80833333
LENCOIS,NE,BA,A425,"2008-04-05",438.74,-41.388808,-12.55722222
TRES LAGOAS,CO,MS,A704,"2001-09-03",328.94,-51.712222,-20.783333
CAMARATUBA,NE,PB,A352,"2008-05-04",136.0,-35.13472221,-6.56083333
ANGELICA,CO,MS,S701,"2018-04-09",347.0,-53.76361111,-22.14805555
SAO BORJA,S,RS,A830,"2007-07-21",83.0,-56.01555555,-28.64944444
SANTA MARIA,S,RS,A803,"2001-11-26",103.1,-53.70361111,-29.70833333
SAO GABRIEL,S,RS,A832,"2007-07-11",126.0,-54.31083333,-30.34138888
SERRA TALHADA,NE,PE,A350,"2008-07-09",499.02,-38.29472221,-7.95361111
NOSSA SENHORA DA GLORIA,NE,SE,A453,"2017-03-24",271.0,-37.43194443,-10.20777777
SONORA,CO,MS,A761,"2012-11-30",495.25,-54.45361111,-17.63527777
ALTO PARAISO DE GOIAS,CO,GO,A024,"2007-06-04",1264.7,-47.52305554,-14.13305554
JARDIM,CO,MS,A758,"2011-08-04",252.47,-56.13694444,-21.47833332
JOAO PINHEIRO,SE,MG,A553,"2007-07-07",877.05,-46.11916666,-17.784477
JOACABA,S,SC,A841,"2007-09-20",776.0,-51.55888888,-27.16916666
RIBAS DO RIO PARDO,CO,MS,S715,"2018-01-18",442.0,-53.763028,-20.46666666
CACOAL,N,RO,A939,"2008-07-20",210.0,-61.434146,-11.44583333
TUPANCIRETA,S,RS,A886,"2016-08-11",462.0,-53.82665025,-29.0893814
SEROPEDICA-ECOLOGIA AGRICOLA,SE,RJ,A601,"2019-01-01",35.0,-43.68472221,-22.75777777
CAMPO NOVO DOS PARECIS,CO,MT,A905,"2002-12-13",570.0,-57.83333333,-13.78333333
URUSSANGA,S,SC,A814,"2008-05-29",48.0,-49.31527777,-28.53249999
AMARGOSA,NE,BA,A434,"2008-07-11",407.0,-39.616881,-13.00944444
CAROLINA,NE,MA,A205,"2007-12-04",192.0,-47.45972222,-7.33722221
SANTA ROSA DO TOCANTINS,N,TO,A052,"2015-08-14",306.0,-48.184889,-11.04638888
CHAPADA GAUCHA,SE,MG,A548,"2007-06-22",880.0,-45.61666666,-15.300159
CRISTALINA (FAZENDA SANTA MONICA),CO,GO,A056,"2018-01-25",932.0,-47.62583332,-16.39944444
UNA,NE,BA,A437,"2008-06-25",74.08,-39.0911111,-15.27999999
RIO BRANCO,N,AC,A104,"2008-07-11",223.52,-68.165,-9.95777777
PARAUNA,CO,GO,A027,"2008-03-29",678.74,-50.42527777,-16.94583333
QUARAI,S,RS,A831,"2007-10-17",124.0,-56.437115,-30.368578
CRATEUS,NE,CE,A342,"2008-12-11",298.19,-40.66999999,-5.1861111
VILA MILITAR,SE,RJ,A621,"2007-04-13",45.0,-43.41111111,-22.86083333
SAO SIMAO,SE,SP,A770,"2019-07-03",620.0,-47.57944443,-21.46111111
PALMARES,NE,PE,A357,"2008-09-04",180.0,-35.56805554,-8.66638888
GUANAMBI,NE,BA,A426,"2008-04-24",882.0,-42.74944444,-14.20805555
JAGUARIBE,NE,CE,A358,"2008-09-10",184.0,-38.62777777,-5.90527777
LABREA,N,AM,A111,"2008-07-27",64.0,-64.788501,-7.26055555
VICOSA,SE,MG,A510,"2005-09-15",712.2,-42.86388888,-20.762607
BACABAL,NE,MA,A220,"2008-07-09",28.0,-44.794993,-4.24305555
RIO NEGRINHO,S,SC,A862,"2008-03-22",869.0,-49.58055554,-26.248411
VENDA NOVA DO IMIGRANTE,SE,ES,A633,"2017-02-10",722.0,-41.189934,-20.25222222
CAMPOS DOS GOYTACAZES,SE,RJ,A607,"2019-01-01",17.0,-41.34388888,-21.71472222
NOVA FRIBURGO,SE,RJ,A624,"2010-09-17",1046.0,-42.67722221,-22.33305554
CARUARU,NE,PE,A341,"2007-11-21",852.0,-35.98583333,-8.2361111
BAIXA GRANDE DO RIBEIRO,NE,PI,A375,"2018-03-23",519.0,-45.094625,-8.333531
PARQUE ESTADUAL CHANDLESS,N,AC,A102,"2008-08-05",187.0,-69.92638888,-9.3575
OLIVEIRA,SE,MG,A570,"2017-10-19",1025.0,-44.86444444,-20.71472222
URUCARA,N,AM,A124,"2008-04-17",18.49,-57.758099,-2.534749
MACAE,SE,RJ,A608,"2006-09-22",32.0,-41.81194444,-22.3761111
NHUMIRIM,CO,MS,A717,"2006-08-02",102.26,-56.62277777,-18.9886111
JATAI,CO,GO,A016,"2007-05-23",670.08,-51.717467,-17.923622
UNAI,SE,MG,A542,"2007-06-16",640.85,-46.881935,-16.55388888
TEUTONIA,S,RS,A882,"2012-10-04",81.0,-51.82416666,-29.45027777
AMAMBAI,CO,MS,A750,"2008-06-11",433.59,-55.32944443,-23.0025
BALSAS,NE,MA,A204,"2007-10-26",271.03,-46.02749999,-7.45527777
ITUMBIARA,CO,GO,A035,"2007-11-01",491.17,-49.19194444,-18.40972222
JALES,SE,SP,A733,"2007-08-22",460.44,-50.59499999,-20.165
APIACAS,CO,MT,A910,"2006-10-24",220.0,-57.3936111,-9.56333333
SOLEDADE,S,RS,A837,"2008-03-01",667.0,-52.542387,-28.85361111
SERRA NOVA DOURADA,CO,MT,A943,"2019-03-29",441.0,-51.4261111,-11.98777777
MARILANDIA,SE,ES,A632,"2017-03-22",95.0,-40.53972221,-19.407181
CAMPOS DOS GOYTACAZES - SAO TOME,SE,RJ,A620,"2019-01-01",7.0,-41.05166666,-22.04166666
MARECHAL THAUMATURGO,N,AC,A137,"2009-10-27",230.0,-72.78666666,-8.95
JACOBINA,NE,BA,A440,"2008-05-01",453.0,-40.465,-11.205
OEIRAS,NE,PI,A354,"2008-07-22",156.0,-42.146831,-6.974135
AIMORES,SE,MG,A534,"2007-08-05",287.74,-41.090801,-19.532768
NOVA MARINGA,CO,MT,A928,"2008-04-16",353.0,-57.092201,-13.038642
PRIMAVERA DO LESTE,CO,MT,A923,"2017-10-26",680.0,-54.3811111,-15.57999999
BARRA DO CORDA,NE,MA,A221,"2008-03-06",154.19,-45.23694444,-5.50666666
TRES RIOS,SE,RJ,A625,"2016-06-08",305.0,-43.20833333,-22.09833333
TIMOTEO,SE,MG,A511,"2006-02-22",493.42,-42.62222221,-19.5736111
CURITIBANOS,S,SC,A860,"2008-02-28",978.1,-50.60416666,-27.2886111
MAL. CANDIDO RONDON,S,PR,A820,"2006-11-18",392.07,-54.01916666,-24.533303
CAMETA,N,PA,A236,"2008-06-20",22.0,-49.49305555,-2.239653
GENERAL CARNEIRO,S,PR,A875,"2008-04-30",1018.0,-51.35361111,-26.398473
CASTELO DO PIAUI,NE,PI,A361,"2009-04-20",286.0,-41.51222222,-5.34916666
SAQUAREMA,SE,RJ,A667,"2015-09-02",16.0,-42.60916666,-22.8711111
COLOMBO,S,PR,B806,"2016-06-01",950.0,-49.1575,-25.32222221
BRAZLANDIA,CO,DF,A042,"2017-07-19",1143.0,-48.1311111,-15.59972221
TERESINA,NE,PI,A312,"2004-11-24",75.23,-42.801341,-5.03472221
SALINOPOLIS,N,PA,A215,"2008-06-14",41.0,-47.356596,-0.6186111
SELVIRIA,CO,MS,S717,"2018-04-05",374.0,-51.430222,-20.35138888
CAMPOS NOVOS,S,SC,A898,"2019-02-15",963.0,-51.21583333,-27.3886111
ZE DOCA,NE,MA,A255,"2019-09-18",45.5,-45.65111111,-3.26916666
VALENCA DO PIAUI,NE,PI,A363,"2009-04-18",313.39,-41.739953,-6.39916666
SAO JOAQUIM,S,SC,A815,"2008-04-12",1410.0,-49.93444444,-28.27555554
JUINA,CO,MT,A920,"2006-11-24",365.39,-58.73305554,-11.36694443
URUCUI,NE,PI,A346,"2008-03-06",398.83,-44.34472221,-7.44142
FORMOSO DO RIO PRETO,NE,BA,A452,"2016-06-02",488.0,-45.200769,-11.052164
PORTO ALEGRE,S,RS,A801,"2000-09-22",46.97,-51.16666666,-30.05
PORTO VELHO,N,RO,A925,"2007-07-11",98.0,-63.47499999,-8.76388888
ITAPIRA,SE,SP,A739,"2007-11-05",634.89,-46.80527777,-22.415
SAO JOAO DEL REI,SE,MG,A514,"2006-06-09",991.0,-44.250928,-21.106502
CARMO,SE,RJ,A629,"2018-10-11",293.0,-42.60083333,-21.9386111
XINGUARA,N,PA,A247,"2016-09-11",245.0,-49.92583332,-7.11027777
UBERLANDIA,SE,MG,A507,"2002-12-18",874.77,-48.25555555,-18.91694443
CURITIBA,S,PR,A807,"2003-01-28",923.5,-49.23055554,-25.43333333
IBIRUBA,S,RS,A883,"2012-12-13",456.0,-53.111881,-28.65333333
MONTEIRO,NE,PB,A334,"2007-08-22",606.39,-37.11527777,-7.89138888
DELFINO,NE,BA,A443,"2008-07-15",646.24,-41.20694444,-10.45492
IBITINGA,SE,SP,A737,"2007-11-09",496.75,-48.66666666,-21.85555555
ITAPACI,CO,GO,A015,"2007-02-03",551.16,-49.53944444,-14.97972221
SALVADOR (RADIO FAROL),NE,BA,A456,"2018-03-10",31.0,-38.49583333,-12.80833333
SAO LUIZ GONZAGA,S,RS,A852,"2007-07-25",245.5,-54.96222222,-28.41694443
COTRIGUACU,CO,MT,A919,"2007-05-28",265.0,-58.57194443,-9.90611111
PIRANHAS,NE,AL,A371,"2017-09-20",187.0,-37.767113,-9.62222221
URUGUAIANA,S,RS,A809,"2006-09-28",74.29,-57.081899,-29.83987
PARACATU,SE,MG,A571,"2018-03-16",712.0,-46.88166666,-17.24416666
CAMBARA DO SUL,S,RS,A897,"2016-11-24",1017.0,-50.14944444,-29.04888888
SETE LAGOAS,SE,MG,A569,"2016-06-10",719.0,-44.17333332,-19.455
ACARAU,NE,CE,A360,"2009-04-22",76.0,-40.08694444,-3.12083332
SANTO ANTONIO DO LESTE,CO,MT,A931,"2008-05-30",664.21,-53.8836111,-14.92777777
ITABERABA,NE,BA,A408,"2003-01-29",250.11,-40.29972221,-12.51666666
BRASNORTE (MUNDO NOVO),CO,MT,A927,"2008-02-29",431.0,-58.38722221,-12.87194443
TRAMANDAI,S,RS,A834,"2008-03-09",4.56,-50.13527777,-30.00972222
JANAUBA,SE,MG,A563,"2016-11-19",532.0,-43.29694444,-15.80277777
SOURE,N,PA,A227,"2008-04-27",12.54,-48.51583333,-0.72777777
CALDAS,SE,MG,A530,"2006-11-28",1150.0,-46.382996,-21.91805554
EIRUNEPE,N,AM,A109,"2012-08-31",143.0,-69.86694443,-6.65027777
ARAGARCAS,CO,GO,A013,"2007-07-13",347.0,-52.24388888,-15.902658
ALTO ARAGUAIA,CO,MT,A909,"2011-09-22",753.28,-53.22416666,-17.33944444
PIRIPIRI,NE,PI,A335,"2007-08-31",161.2,-41.77805554,-4.26388888
ESPERANTINA,NE,PI,A338,"2007-12-03",65.0,-42.23694444,-3.90083333
SAO PAULO - MIRANTE,SE,SP,A701,"2006-07-25",792.06,-46.61666666,-23.48333333
CHAPADAO DO SUL,CO,MS,A730,"2006-12-20",820.82,-52.6025,-18.802187
AGUA CLARA,CO,MS,A756,"2010-08-14",338.0,-52.87555554,-20.44444
ITIRUCU,NE,BA,A407,"2003-02-09",757.42,-40.11972221,-13.527828
ARACAJU,NE,SE,A409,"2003-02-12",4.72,-37.05,-10.95027777
MAJOR VIEIRA,S,SC,A864,"2009-02-09",808.0,-50.363211,-26.3936111
SANTA ISABEL DO RIO NEGRO,N,AM,S121,"2016-12-01",-9999.0,-65.01749999,-0.41444444
SERAFINA CORREA,S,RS,A894,"2016-04-01",545.0,-51.87055554,-28.70472222
FORMIGA,SE,MG,A524,"2006-08-17",878.14,-45.453825,-20.45472222
SAO JOSE DO XINGU,CO,MT,A942,"2019-02-19",300.0,-52.37249999,-10.48416666
CAMPINA DA LAGOA,S,PR,B803,"2016-08-04",598.0,-52.800256,-24.57083332
ITAPETINGA,NE,BA,A446,"2009-06-25",271.48,-40.22944443,-15.24462
PEIXE,N,TO,A018,"2006-12-01",250.87,-48.544517,-12.015377
HUMAITA,N,AM,A112,"2008-04-25",72.0,-63.071343,-7.55252
TERESOPOLIS-PARQUE NACIONAL,SE,RJ,A618,"2019-01-01",981.0,-42.98694444,-22.4486111
JOAQUIM TAVORA,S,PR,A821,"2006-11-23",522.0,-49.946387,-23.505266
SANTA TERESA,SE,ES,A613,"2007-08-09",988.0,-40.57944443,-19.98833333
SORRISO,CO,MT,A904,"2002-12-16",380.0,-55.71666666,-12.55
POSSE,CO,GO,A017,"2007-04-18",834.0,-46.36638888,-14.08916666
ICARAIMA,S,PR,A824,"2006-11-16",385.0,-53.63472221,-23.39027777
ECOPORANGA,SE,ES,A631,"2017-03-17",224.0,-40.73638888,-18.29138888
ILHEUS,NE,BA,A410,"2003-01-25",80.21,-39.1811111,-14.658803
ARAGUACU,N,TO,A054,"2015-08-19",231.0,-49.5286111,-12.592213
UBERABA,SE,MG,A568,"2017-05-19",778.0,-47.96166666,-19.71
BURITICUPU,NE,MA,A238,"2008-09-11",175.0,-46.449503,-4.32055554
AUTAZES,N,AM,A120,"2008-04-17",78.0,-59.12944,-2.05638888
RIO DO CAMPO,S,SC,A861,"2008-03-10",592.0,-50.145445,-26.93749999
RIO BRILHANTE,CO,MS,A743,"2008-06-26",329.0,-54.52805554,-21.77472221
IGUAPE,SE,SP,A712,"2006-07-20",2.7,-47.545896,-24.671654
RIO DE JANEIRO-MARAMBAIA,SE,RJ,A602,"2019-01-01",12.0,-43.59555555,-23.05027777
SANTA CRUZ,NE,RN,A367,"2010-08-17",237.0,-36.02638888,-6.22777777
PAULISTANA,NE,PI,A330,"2007-08-31",376.0,-41.07999999,-8.07999999
GOIAS,CO,GO,A014,"2007-07-18",512.86,-50.14138888,-15.93916666
CRISTALINA,CO,GO,A036,"2007-12-14",1211.08,-47.61166666,-16.784896
SERRINHA,NE,BA,A441,"2008-05-09",339.0,-39.022946,-11.66444444
GAUCHA DO NORTE,CO,MT,A930,"2008-06-04",379.0,-53.257366,-13.18472221
CORRENTINA,NE,BA,A416,"2007-11-09",551.71,-44.61722221,-13.33222221
BATAGUASSU,CO,MS,A759,"2013-03-21",392.13,-52.47055554,-21.750123
TOME ACU,N,PA,A213,"2007-10-14",42.95,-48.36055555,-2.59249999
PONTES E LACERDA,CO,MT,A937,"2008-01-30",272.53,-59.346215,-15.234582
CRUZ DAS ALMAS,NE,BA,A406,"2003-01-19",225.87,-39.08944444,-12.65
JEREMOABO,NE,BA,A450,"2015-08-13",261.0,-38.34583333,-10.08083332
FREDERICO WESTPHALEN,S,RS,A854,"2007-12-14",490.0,-53.41277777,-27.39555555
FOZ DO IGUACU,S,PR,A846,"2008-02-15",242.0,-54.48305554,-25.601834
MARACAJU,CO,MS,A731,"2006-12-15",400.0,-55.177531,-21.609036
PICO DO COUTO,SE,RJ,A610,"2006-10-22",1777.0,-43.29138888,-22.46472222
CAPELINHA,SE,MG,A541,"2007-08-31",948.0,-42.38916666,-17.70527777
FLORIANOPOLIS,S,SC,A806,"2003-01-22",4.87,-48.61999999,-27.6025
PIRACICABA,SE,SP,A726,"2006-09-26",573.0,-47.62305554,-22.70277777
BEBDOURO,SE,SP,A764,"2016-10-27",790.0,-48.48972221,-20.94916666
CRIOSFERA,SE,SP,C891,"2020-01-01",1285.0,-79.49416666,-84.0
CAMBUCI,SE,RJ,A604,"2002-11-20",46.0,-41.95,-21.56666666
PORTO ESTRELA,CO,MT,A935,"2008-05-30",147.75,-57.22583332,-15.32472221
PARAGOMINAS,N,PA,A212,"2007-10-18",113.0,-47.34305555,-2.99027777
GRAJAU,NE,MA,A207,"2008-09-10",232.29,-46.15944444,-5.816085
Santa Vitoria do Palmar - Barra do Chui,S,RS,A899,"2008-03-08",26.0,-53.37138888,-33.74166666
LAGUNA CARAPA,CO,MS,S711,"2018-04-12",499.0,-55.16027777,-22.57527777
CANTO DO BURITI,NE,PI,A365,"2010-06-12",312.07,-42.00888888,-8.11777777
CANGUCU,S,RS,A811,"2007-01-24",462.0,-52.700699,-31.403299
COARI,N,AM,A117,"2008-04-12",53.0,-63.14527777,-4.097483
APODI,NE,RN,A340,"2007-11-14",150.0,-37.814991,-5.62638888
BARUERI,SE,SP,A755,"2011-03-29",791.0,-46.86916666,-23.52333332
PEF IPIRANGA,N,AM,S102,"2016-12-01",-9999.0,-69.69527777,-2.93055554
NOVA FATIMA,S,PR,A842,"2007-02-08",668.0,-50.577744,-23.40694444
DOM PEDRITO,S,RS,A881,"2010-04-23",150.0,-54.61805554,-31.0025
SAO PEDRO DO PIAUI,NE,PI,A362,"2009-05-20",287.0,-42.7186111,-5.91111111
CUIABA,CO,MT,A901,"2002-12-08",241.56,-56.062951,-15.55916666
CARACOL,NE,PI,A337,"2007-11-10",523.0,-43.32444443,-9.28583333
CAMPO GRANDE,CO,MS,A702,"2001-09-10",530.0,-54.6,-20.447195
PRES. KENNEDY,SE,ES,A622,"2008-06-18",80.0,-41.03888888,-21.100805
FLORESTAL,SE,MG,A535,"2008-06-27",753.5,-44.416883,-19.88527778
ANGRA DOS REIS,SE,RJ,A628,"2017-08-25",6.0,-44.30333333,-22.975694
CANELA,S,RS,A879,"2008-08-23",830.93,-50.82722221,-29.36888888
IMPERATRIZ,NE,MA,A225,"2008-03-01",126.0,-47.45972222,-5.55555555
ENCRUZILHADA DO SUL,S,RS,A893,"2018-03-15",427.75,-52.52472221,-30.54305555
MACAPA,N,AP,A249,"2013-12-12",27.0,-51.0886111,0.03527777
VACARIA,S,RS,A880,"2008-04-26",986.0,-50.882738,-28.513602
MONTE VERDE,SE,MG,A509,"2004-12-19",1544.89,-46.04333333,-22.86138888
SAO MATEUS DO SUL,S,PR,A874,"2011-04-17",788.0,-50.3686111,-25.83499999
CHAPADINHA,NE,MA,A206,"2008-09-17",104.0,-43.35194444,-3.742674
GOIANIA,CO,GO,A002,"2001-05-29",770.0,-49.21999999,-16.64277777
BRASILANDIA,CO,MS,S705,"2018-04-06",345.0,-52.06888888,-21.298278
ABROLHOS,NE,BA,A422,"2008-07-21",25.0,-38.6961111,-17.963016
CAMPINA GRANDE,NE,PB,A313,"2006-12-22",547.56,-35.88888888,-7.225574
NATAL,NE,RN,A304,"2003-02-24",48.6,-35.2,-5.83722221
BRAGANCA PAULISTA,SE,SP,A744,"2017-12-20",891.0,-46.530472,-22.951944
RANCHO QUEIMADO,S,SC,A870,"2016-05-31",881.0,-49.04194444,-27.678507
PORTO SEGURO,NE,BA,A427,"2008-07-10",86.36,-39.182389,-16.388977
UAUA,NE,BA,A435,"2008-05-20",453.0,-39.49555555,-9.8336111
SURUBIM,NE,PE,A328,"2008-03-09",421.44,-35.7961111,-7.83694444
GAMA (PONTE ALTA),CO,DF,A046,"2014-10-01",990.0,-48.13749999,-15.93527777
QUIXADA,NE,CE,A369,"2018-03-20",193.0,-39.057183,-4.978783
AGUAS EMENDADAS,CO,DF,A045,"2008-10-03",1200.0,-47.625801,-15.59638888
VILA BELA DA SANTISSIMA TRINDADE,CO,MT,A922,"2006-12-01",222.0,-59.87277777,-15.062696
ALVORADA DO GURGUEIA,NE,PI,A336,"2007-11-17",270.0,-43.86472222,-8.44166666
CRUZEIRO DO SUL,N,AC,A108,"2015-05-14",220.0,-72.405,-7.61055555
IPORA,CO,GO,A028,"2013-06-24",625.0,-51.14805555,-16.42305554
DIVINOPOLIS,SE,MG,A564,"2017-10-26",796.0,-44.87472221,-20.17305554
EPITACIOLANDIA,N,AC,A140,"2009-09-25",224.5,-68.73499999,-11.0236111
TRES MARIAS,SE,MG,A528,"2006-08-25",931.01,-45.45972222,-18.20055555
CARAVELAS,NE,BA,A405,"2002-12-20",6.05,-39.25861111,-17.73333333
CAMPO MAIOR,NE,PI,A376,"2018-11-23",125.0,-42.14555555,-4.86416666
TURIACU,NE,MA,A219,"2008-06-10",41.0,-45.372571,-1.661224
OURINHOS,SE,SP,A716,"2006-08-29",448.0,-49.89416666,-22.9486111
NOVA UBIRATA,CO,MT,A929,"2008-04-13",518.0,-54.75222222,-13.41111111
PASSO FUNDO,S,RS,A839,"2006-11-27",684.05,-52.403582,-28.226805
CONCEICAO DAS ALAGOAS,SE,MG,A520,"2006-07-18",572.54,-48.15138888,-19.98583333
ITAOBIM,SE,MG,A550,"2007-09-05",271.63,-41.48527777,-16.57555554
CASSILANDIA,CO,MS,A742,"2008-03-08",516.0,-51.720732,-19.122471
BARCELOS,N,AM,A128,"2008-04-19",42.0,-62.92416666,-0.95861111
SAO FELIX DO XINGU,N,PA,A216,"2016-11-15",211.0,-51.95694444,-6.639622
LINS,SE,SP,A727,"2006-09-20",460.65,-49.73416666,-21.66527777
ALTO PARNAIBA,NE,MA,A223,"2008-06-03",283.69,-45.93194443,-9.10805555
IPANGUACU,NE,RN,A372,"2017-11-08",19.0,-36.87222221,-5.534867
EB_PEF_BONFIM,SE,MG,S122,"2016-12-01",-9999.0,-59.82388888,3.35888888
BAMBUI,SE,MG,A565,"2016-11-23",697.0,-46.00861111,-20.0311111
TUCUMA,N,PA,A234,"2008-07-18",320.93,-51.141899,-6.743208
TERESOPOLIS,SE,RJ,A618,"2006-11-01",980.0,-42.98722221,-22.44888888
SOROCABA,SE,SP,A713,"2006-08-22",609.33,-47.585552,-23.35
BOM JESUS DA LAPA,NE,BA,A418,"2007-05-18",447.75,-43.18416666,-13.251094
IPIAU,NE,BA,A445,"2009-06-30",132.11,-39.69249999,-14.171304
ITABAIANA,NE,SE,A451,"2017-04-24",213.0,-37.47138888,-10.67166666
